[
  {
    "id": "150b94f25c504419ba1a559246c83345",
    "name": "中国气象局",
    "lat": "39.947710",
    "lon": "116.326800",
    "areaid": "101010200",
    "city": "北京市",
    "area": "华北",
    "mapLv": "4"
  },
  {
    "id": "982ed3f66b2244b6abe45b33f4b3d0aa",
    "name": "嵊泗西方庵",
    "lat": "30.728756",
    "lon": "122.452873",
    "areaid": "101211101",
    "city": "浙江省舟山市",
    "area": "华东",
    "mapLv": "4"
  },
  {
    "id": "39343b2aac2d4ab0acb6af71c78d6780",
    "name": "荣成市成山头",
    "lat": "37.363335",
    "lon": "122.580383",
    "areaid": "101121301",
    "city": "山东省威海市",
    "area": "华东",
    "mapLv": "5"
  },
  {
    "id": "4bd15bf3adaa485bb94d4fe87c3df106",
    "name": "钱塘江",
    "lat": "30.278718",
    "lon": "120.348471",
    "areaid": "101210101",
    "city": "浙江省杭州市",
    "area": "华东",
    "mapLv": "7"
  },
  {
    "id": "ORTFM5NV896QUZD0H7EL2CSPYIW4JKX2",
    "name": "慕田峪",
    "lat": "40.439227",
    "lon": "116.563741",
    "areaid": "101010500",
    "city": "北京市",
    "area": "华北",
    "mapLv": "8"
  },
  {
    "id": "94c087916e804ecc83b436db1dd949z0",
    "name": "梅里雪山",
    "lat": "28.450000",
    "lon": "98.866666",
    "areaid": "101291301",
    "city": "云南省迪庆藏族自治州",
    "area": "西南",
    "mapLv": "4"
  },
  {
    "id": "a211844f40804a00a0ba5db01ba356d7",
    "name": "武汉东湖",
    "lat": "30.518829",
    "lon": "114.399870",
    "areaid": "101200101",
    "city": "湖北省武汉市",
    "area": "华中",
    "mapLv": "7"
  },
  {
    "id": "cba5098459414e04a548e17ef81c996f",
    "name": "千岛湖",
    "lat": "29.603960",
    "lon": "119.037460",
    "areaid": "101210101",
    "city": "浙江省杭州市",
    "area": "华东",
    "mapLv": "7"
  },
  {
    "id": "fc93701184d440059334599c29641821",
    "name": "泰山",
    "lat": "36.257436",
    "lon": "117.107981",
    "areaid": "101120801",
    "city": "山东省泰安市",
    "area": "华东",
    "mapLv": "6"
  },
  {
    "id": "94c087916e804ecc83b436db1dd949bn",
    "name": "天津铁塔",
    "lat": "39.075480",
    "lon": "117.223290",
    "areaid": "101030100",
    "city": "天津市",
    "area": "华北",
    "mapLv": "7"
  },
  {
    "id": "94c087916e804ecc83b436db1dd949c0",
    "name": "南宁",
    "lat": "22.800995",
    "lon": "108.407222",
    "areaid": "101300101",
    "city": "广西壮族自治区南宁市",
    "area": "华南",
    "mapLv": "4"
  },
  {
    "id": "a012e88e8eab4472ba153d51b428b3f2",
    "name": "龙脊梯田",
    "lat": "25.761819",
    "lon": "110.129080",
    "areaid": "101300501",
    "city": "广西壮族自治区桂林市",
    "area": "华南",
    "mapLv": "6"
  },
  {
    "id": "94c087916e804ecc83b436db1dd949c5",
    "name": "磨盘山7号码头",
    "lat": "25.146374",
    "lon": "110.433154",
    "areaid": "101300501",
    "city": "广西壮族自治区桂林市",
    "area": "华南",
    "mapLv": "8"
  },
  {
    "id": "94c087916e804ecc83b436db1dd949c1",
    "name": "阳朔兴坪古镇",
    "lat": "24.914908",
    "lon": "110.524890",
    "areaid": "101300501",
    "city": "广西壮族自治区桂林市",
    "area": "华南",
    "mapLv": "8"
  },
  {
    "id": "58e987d04700458db3e96ddae0c4182e",
    "name": "沈家门渔港",
    "lat": "29.952520",
    "lon": "122.309040",
    "areaid": "101211101",
    "city": "浙江",
    "area": "华东",
    "mapLv": "7"
  },
  {
    "id": "0d11ea676df0421787d433d227275675",
    "name": "小兴安岭",
    "lat": "47.700000",
    "lon": "128.914444",
    "areaid": "101050814",
    "city": "黑龙江",
    "area": "东北",
    "mapLv": "6"
  },
  {
    "id": "caeb1077ac394fe2a825f90d7566812e",
    "name": "郴州小东江2号桥",
    "lat": "25.944103",
    "lon": "113.265007",
    "areaid": "101250501",
    "city": "湖南省郴州市",
    "area": "华中",
    "mapLv": "6"
  },
  {
    "id": "9ba5e43c5b4e4e9290877294fe9afbef",
    "name": "分界洲岛景区",
    "lat": "18.576110",
    "lon": "110.200290",
    "areaid": "101310216",
    "city": "海南",
    "area": "华南",
    "mapLv": "6"
  }
]